[
  {
    "country": "Denmark",
    "region": "Central Denmark Region",
    "unit": 1,
    "pi": 0,
    "id": "45aa6d55-eaef-47ec-bfcf-1c35158c1891",
    "title": "CC Desing AS",
    "lat": 56.163205,
    "lng": 10.229244
  },
  {
    "country": "Canada",
    "region": "British Columbia",
    "unit": 1,
    "pi": 0,
    "id": "eeb28914-bafe-4f69-b918-e638425d59ad",
    "title": "Oak Bay Marina",
    "lat": 48.424412,
    "lng": -123.30253
  },
  {
    "country": "Portugal",
    "region": "Lisbon District",
    "unit": 1,
    "pi": 0,
    "id": "5d6125f2-af1d-4aff-89ea-e3a09d47d33a",
    "title": "Clube Naval De Cascais",
    "lat": 38.694521,
    "lng": -9.418427
  },
  {
    "country": "Thailand",
    "region": "Samut Prakan",
    "unit": 1,
    "pi": 0,
    "id": "1b46aed2-417a-4a77-8247-5b38f665582c",
    "title": "BTD Environmental Solutions",
    "lat": 13.532577,
    "lng": 100.586664
  },
  {
    "country": "United Kingdom",
    "region": "Northern Ireland",
    "unit": 3,
    "pi": 0,
    "id": "e7f37412-21dc-4145-a012-2e965e3d46a0",
    "title": "Bangor Marina",
    "lat": 54.663643,
    "lng": -5.66959
  },
  {
    "country": "United Kingdom",
    "region": "Northern Ireland",
    "unit": 1,
    "pi": 0,
    "id": "b168ed37-fffb-4beb-87e0-e5a85f104745",
    "title": "Bangor Marina",
    "lat": 54.664543,
    "lng": -5.672669
  },
  {
    "country": "United Kingdom",
    "region": "Northern Ireland",
    "unit": 2,
    "pi": 0,
    "id": "e1d884c2-b896-4d54-b56a-f3261ae81334",
    "title": "Bangor Marina",
    "lat": 54.664895,
    "lng": -5.670062
  },
  {
    "country": "Spain",
    "region": "Balearic Islands",
    "unit": 2,
    "pi": 0,
    "id": "d9c014fc-27de-40eb-baf0-c76d98522f4d",
    "title": "Club de Mar",
    "lat": 39.556858,
    "lng": 2.628327
  },
  {
    "country": "Spain",
    "region": "Balearic Islands",
    "unit": 1,
    "pi": 0,
    "id": "68b1b39a-127a-401c-8359-3a86626fbb6a",
    "title": "Club de Mar",
    "lat": 39.554167,
    "lng": 2.626111
  },
  {
    "country": "Australia",
    "region": "New South Wales",
    "unit": 1,
    "pi": 0,
    "id": "911b2b88-4784-48a7-5a39-08d9baa9b2d8",
    "title": "Newcastle Cruising Yacht Club",
    "lat": -32.91998,
    "lng": 151.76096
  },
  {
    "country": "Australia",
    "region": "Queensland",
    "unit": 1,
    "pi": 0,
    "id": "8f4a56a8-f68e-454a-8d55-75948afa9064",
    "title": "Hope Island",
    "lat": -27.866672,
    "lng": 153.349044
  },
  {
    "country": "Italy",
    "region": "Calabria",
    "unit": 1,
    "pi": 0,
    "id": "a0ffa172-cc19-47b0-b932-1052616adb25",
    "title": "Dragflow SUD",
    "lat": 38.185391,
    "lng": 15.635116
  },
  {
    "country": "United Kingdom",
    "region": "England",
    "unit": 1,
    "pi": 0,
    "id": "574c4e20-d141-49cb-9b98-7ccfa27c6af7",
    "title": "The Marina Office Ocean Village",
    "lat": 36.148258,
    "lng": -5.353415
  },
  {
    "country": "United States of America",
    "region": "California",
    "unit": 1,
    "pi": 0,
    "id": "fcf39d42-6f28-48b8-aabc-cabd2b1a9777",
    "title": "Safe Harbour- Emeryville",
    "lat": 37.838721,
    "lng": -122.314313
  },
  {
    "country": "Germany",
    "region": "Schleswig-Holstein Land",
    "unit": 1,
    "pi": 0,
    "id": "5d3cb7d6-96ff-42b9-aa3d-9d6eba95b510",
    "title": "Point Of Sailing",
    "lat": 54.396381,
    "lng": 10.190728
  },
  {
    "country": "United Kingdom",
    "region": "England",
    "unit": 1,
    "pi": 0,
    "id": "2f0ed049-7362-490b-a32c-9661370a179e",
    "title": "Port of Felixstowe",
    "lat": 51.995524,
    "lng": 1.270288
  },
  {
    "country": "Australia",
    "region": "Northern Territory",
    "unit": 1,
    "pi": 0,
    "id": "f7145e01-2233-45df-afc8-b76db4d4c656",
    "title": "Mike Little",
    "lat": -12.454066,
    "lng": 130.823551
  },
  {
    "country": "Canada",
    "region": "British Columbia",
    "unit": 1,
    "pi": 0,
    "id": "20903792-9931-42b0-8fca-ce705aab1324",
    "title": "North Saanich Marina",
    "lat": 48.676716,
    "lng": -123.41544
  },
  {
    "country": "Ireland",
    "region": "Tullamore",
    "unit": 1,
    "pi": 0,
    "id": "d22c6317-4283-4c9b-b30e-c0877a0eee73",
    "title": "ICMS",
    "lat": 53.193547,
    "lng": -7.991319
  },
  {
    "country": "Japan",
    "region": "Chūbu",
    "unit": 1,
    "pi": 0,
    "id": "3d32d31a-3661-4985-93e3-0a0e5921167e",
    "title": "Hamanako YAMAHA Marina",
    "lat": 34.755655,
    "lng": 137.520305
  },
  {
    "country": "France",
    "region": "Corsica",
    "unit": 1,
    "pi": 0,
    "id": "2ea9a403-ddb9-4115-b94a-2e840226cf15",
    "title": "Port De Bastia",
    "lat": 42.702257,
    "lng": 9.453895
  },
  {
    "country": "United States of America",
    "region": "California",
    "unit": 1,
    "pi": 0,
    "id": "3d47a96e-f890-4a19-9109-1534edf4d5d8",
    "title": "Neptune Marina",
    "lat": 33.975916,
    "lng": -118.457635
  },
  {
    "country": "United States of America",
    "region": "Hawaii",
    "unit": 1,
    "pi": 1,
    "id": "d9b3039d-05d7-4a18-8c57-475edd01f3c1",
    "title": "Ala Wai Boat Harbor",
    "lat": 21.284228,
    "lng": -157.840464
  },
  {
    "country": "United States of America",
    "region": "Hawaii",
    "unit": 2,
    "pi": 1,
    "id": "9ea0f0f1-15d2-4094-95b3-87905eb492e9",
    "title": "Ala Wai Boat Harbor",
    "lat": 21.285742,
    "lng": -157.841517
  },
  {
    "country": "France",
    "region": "Metropolitan France",
    "unit": 1,
    "pi": 0,
    "id": "54b146de-1cc9-45c2-a0f0-6ff63b7726fa",
    "title": "Port St Florent",
    "lat": 42.681799,
    "lng": 9.299697
  },
  {
    "country": "Italy",
    "region": "Calabria",
    "unit": 1,
    "pi": 0,
    "id": "d0dfe3bf-29ab-4a05-9abc-b4b5d26e8cdd",
    "title": "Roccela Ionica Rc",
    "lat": 38.328223,
    "lng": 16.435702
  },
  {
    "country": "Ireland",
    "region": "Connaught",
    "unit": 3,
    "pi": 0,
    "id": "266054ae-a032-49d2-a47c-dc85045c3a2d",
    "title": "The Docks, Galway Harbour",
    "lat": 53.269455,
    "lng": -9.0499
  },
  {
    "country": "Ireland",
    "region": "Connaught",
    "unit": 2,
    "pi": 0,
    "id": "c5885584-6a37-435b-b63f-66a254b3dbfa",
    "title": "The Docks, Galway Harbour",
    "lat": 53.269626,
    "lng": -9.051241
  },
  {
    "country": "Ireland",
    "region": "Connaught",
    "unit": 1,
    "pi": 0,
    "id": "53cc73e1-dc38-49f7-8d17-82dca6154a15",
    "title": "The Docks, Galway Harbour",
    "lat": 53.26986,
    "lng": -9.051677
  },
  {
    "country": "Malaysia",
    "region": "Sabah",
    "unit": 1,
    "pi": 0,
    "id": "9dee06c8-4be8-4925-beaf-32e8df199439",
    "title": "Motor Yacht Lady Candy",
    "lat": 5.958457,
    "lng": 116.056277
  },
  {
    "country": "Italy",
    "region": "Liguria region",
    "unit": 1,
    "pi": 0,
    "id": "3a187550-461b-40cd-85bb-d0b6091a07e5",
    "title": "Porto Lotti",
    "lat": 44.097028,
    "lng": 9.859222
  },
  {
    "country": "Spain",
    "region": "Mid Harbour Estate",
    "unit": 1,
    "pi": 0,
    "id": "97ad340e-a362-45c2-821e-3f8d74d710f2",
    "title": "Department Of The Environment",
    "lat": 36.140834,
    "lng": -5.358403
  },
  {
    "country": "Italy",
    "region": "Liguria",
    "unit": 1,
    "pi": 0,
    "id": "275bbb8d-82dc-4322-bfa6-36ffbcec7e8c",
    "title": "Comune Si Santa Margherita Ligure",
    "lat": 44.334138,
    "lng": 9.214214
  },
  {
    "country": "United Kingdom",
    "region": "England",
    "unit": 1,
    "pi": 0,
    "id": "bf5d5ef7-f690-47e5-91b7-8e141a2d6a52",
    "title": "Butterfield Group (UK)",
    "lat": 51.507394,
    "lng": 0.01992
  },
  {
    "country": "Italy",
    "region": "Sardinia",
    "unit": 1,
    "pi": 0,
    "id": "cd402c29-a8d0-4945-ac1a-0581b19c01e2",
    "title": "Acquatica SRL",
    "lat": 40.560223,
    "lng": 8.313492
  },
  {
    "country": "Turkey",
    "region": "Istanbul Province",
    "unit": 1,
    "pi": 0,
    "id": "274209ad-9763-4467-86be-c21fd78f4f54",
    "title": "Wartsila Enpa Dis Tic",
    "lat": 41.076537,
    "lng": 28.238148
  },
  {
    "country": "Australia",
    "region": "New South Wales",
    "unit": 1,
    "pi": 1,
    "id": "808f0e0f-ba87-403e-a54e-c0f9e2bf827c",
    "title": "Cruising Yacht Club of Australia",
    "lat": -33.874139,
    "lng": 151.233389
  },
  {
    "country": "Australia",
    "region": "New South Wales",
    "unit": 2,
    "pi": 1,
    "id": "9c6b6df7-e97a-4d2b-8ec9-c0471d113203",
    "title": "Cruising Yacht Club of Australia",
    "lat": -33.873972,
    "lng": 151.23325
  },
  {
    "country": "Australia",
    "region": "New South Wales",
    "unit": 6,
    "pi": 1,
    "id": "180fd164-ff94-4fc3-ad0f-3ddef5063251",
    "title": "Cruising Yacht Club of Australia",
    "lat": -33.8735,
    "lng": 151.233417
  },
  {
    "country": "Australia",
    "region": "New South Wales",
    "unit": 5,
    "pi": 1,
    "id": "d8d4e18d-1fe4-4137-bca8-2e8778e14729",
    "title": "Cruising Yacht Club of Australia",
    "lat": -33.873667,
    "lng": 151.233389
  },
  {
    "country": "Australia",
    "region": "New South Wales",
    "unit": 4,
    "pi": 1,
    "id": "41f1918e-b585-44fe-b704-80087aa0748e",
    "title": "Cruising Yacht Club of Australia",
    "lat": -33.873778,
    "lng": 151.233278
  },
  {
    "country": "Australia",
    "region": "New South Wales",
    "unit": 3,
    "pi": 1,
    "id": "5297a1b6-de01-444a-aa68-6bc89013f9ee",
    "title": "Cruising Yacht Club of Australia",
    "lat": -33.874001,
    "lng": 151.233222
  },
  {
    "country": "Sweden",
    "region": "Skåne",
    "unit": 1,
    "pi": 0,
    "id": "34818d20-9914-4988-9583-d32346716ec8",
    "title": "Norra Hamnen Helsingborg",
    "lat": 56.050418,
    "lng": 12.684804
  },
  {
    "country": "France",
    "region": "Provence-Alpes-Côte d'Azur",
    "unit": 1,
    "pi": 0,
    "id": "344bef5e-ec7a-477c-bc71-d4b8851917f5",
    "title": "Marseille Societe Nautique",
    "lat": 43.293081,
    "lng": 5.36872
  },
  {
    "country": "Australia",
    "region": "New South Wales",
    "unit": 2,
    "pi": 0,
    "id": "07aa613b-b3be-4763-a361-9d882bd59ad7",
    "title": "Port Macquarie Marina",
    "lat": -31.427876,
    "lng": 152.898269
  },
  {
    "country": "Australia",
    "region": "New South Wales",
    "unit": 1,
    "pi": 0,
    "id": "ec520253-e5ab-496d-9218-e5ad55ef9e58",
    "title": "Port Macquarie Marina",
    "lat": -31.428029,
    "lng": 152.89838
  },
  {
    "country": "United Kingdom",
    "region": "Scotland",
    "unit": 2,
    "pi": 0,
    "id": "d299b98c-d2ab-4406-96a7-2d47e5f3f555",
    "title": "Stornoway Port Authority",
    "lat": 58.207102,
    "lng": -6.392127
  },
  {
    "country": "United Kingdom",
    "region": "Scotland",
    "unit": 1,
    "pi": 0,
    "id": "511bf8e7-a58b-4d7f-950c-29f0418d1a13",
    "title": "Stornoway Port Authority",
    "lat": 58.208491,
    "lng": -6.392495
  },
  {
    "country": "Hong Kong",
    "region": "So Kwun Wat",
    "unit": 1,
    "pi": 0,
    "id": "62f1874a-767c-4d06-af3c-2dbdf475711c",
    "title": "Gold Coast Yacht And Country Club",
    "lat": 22.367086,
    "lng": 113.994321
  },
  {
    "country": "Fiji",
    "region": "Rewa Province",
    "unit": 1,
    "pi": 0,
    "id": "5f9a49e9-fcd6-4b2d-adc2-be5e5730023b",
    "title": "Kokomo Private Island",
    "lat": -18.804858,
    "lng": 178.530159
  },
  {
    "country": "Italy",
    "region": "Campania",
    "unit": 1,
    "pi": 0,
    "id": "687956b9-9490-4014-bc4b-8e8711f90572",
    "title": "Autorita Di Sistema Portuale",
    "lat": 40.843327,
    "lng": 14.262253
  },
  {
    "country": "Norway",
    "region": "Oslo",
    "unit": 1,
    "pi": 0,
    "id": "2820b6f1-9b56-4569-9d5b-01aeb27e21e2",
    "title": "Oslo Port Authority",
    "lat": 59.901651,
    "lng": 10.756396
  },
  {
    "country": "New Zealand",
    "region": "Northland Region",
    "unit": 1,
    "pi": 1,
    "id": "062f24a9-6593-47b8-beab-8d4a976609ea",
    "title": "Tutukaka Marina",
    "lat": -35.610159,
    "lng": 174.528984
  },
  {
    "country": "United Kingdom",
    "region": "England",
    "unit": 1,
    "pi": 0,
    "id": "3aa7a2bd-e6e0-4339-a4a2-4da44c56ee46",
    "title": "Quayside Chatham Maritime Marina",
    "lat": 51.403527,
    "lng": 0.534607
  },
  {
    "country": "France",
    "region": "Provence-Alpes-Côte d'Azur",
    "unit": 1,
    "pi": 0,
    "id": "92311bba-41ea-4be4-9869-9ff5f2816d66",
    "title": "Regie De Port Du Lavandou",
    "lat": 43.137002,
    "lng": 6.374753
  },
  {
    "country": "France",
    "region": "Dunkerque",
    "unit": 1,
    "pi": 0,
    "id": "ada9ea35-30af-4333-8d52-105b62d725d4",
    "title": "Dunkerque Marina",
    "lat": 51.034321,
    "lng": 2.368076
  },
  {
    "country": "United States of America",
    "region": "California",
    "unit": 1,
    "pi": 0,
    "id": "c95323c6-36fa-489b-927f-3caad023769c",
    "title": "My Invictus",
    "lat": 33.971658,
    "lng": -118.449692
  },
  {
    "country": "United Kingdom",
    "region": "England",
    "unit": 1,
    "pi": 0,
    "id": "9a616aaa-c674-4027-8afa-ca57ece676b5",
    "title": "Emsworth Yacht Harbour",
    "lat": 50.842596,
    "lng": -0.930771
  },
  {
    "country": "Finland",
    "region": "Turku",
    "unit": 1,
    "pi": 3,
    "id": "e7fb6a21-d2b6-4fd9-8c2f-ce21cb676962",
    "title": "Turku Guest Harbour",
    "lat": 60.440233,
    "lng": 22.245421
  },
  {
    "country": "Canada",
    "region": "British Columbia",
    "unit": 1,
    "pi": 0,
    "id": "d39bccdf-addb-4b00-9209-ef26bdc0364c",
    "title": "Pedder Bay Marina",
    "lat": 48.347652,
    "lng": -123.57162
  },
  {
    "country": "Greece",
    "region": "Attica",
    "unit": 1,
    "pi": 0,
    "id": "481ae00c-0c8b-4ad9-bfa7-f1283d968898",
    "title": "Athenes",
    "lat": 38.025473,
    "lng": 23.678887
  },
  {
    "country": "United States of America",
    "region": "California",
    "unit": 3,
    "pi": 0,
    "id": "1d42c87c-c208-4e27-87b6-c4433d86d0e7",
    "title": "Marina Harbor Anchorage",
    "lat": 33.970577,
    "lng": -118.449764
  },
  {
    "country": "United States of America",
    "region": "California",
    "unit": 1,
    "pi": 0,
    "id": "1644241e-cefd-4ff4-9b19-96e35fad47b2",
    "title": "Marina Harbor Anchorage",
    "lat": 33.972134,
    "lng": -118.455337
  },
  {
    "country": "United States of America",
    "region": "California",
    "unit": 2,
    "pi": 0,
    "id": "53daec48-a400-42ab-99a4-436650de6245",
    "title": "Marina Harbor Anchorage",
    "lat": 33.970719,
    "lng": -118.449739
  },
  {
    "country": "United Kingdom",
    "region": "England",
    "unit": 1,
    "pi": 0,
    "id": "3d1ab6de-a6cf-4d0b-bcd6-a4cc57db13c4",
    "title": "Poole",
    "lat": 50.734262,
    "lng": -1.996242
  },
  {
    "country": "Japan",
    "region": "Tokyo",
    "unit": 1,
    "pi": 0,
    "id": "a50f5e34-db53-4e5b-a0e7-0e8eb032f244",
    "title": "T Harbor Company Ltd",
    "lat": 35.619791,
    "lng": 139.747471
  },
  {
    "country": "France",
    "region": "Occitanie",
    "unit": 2,
    "pi": 0,
    "id": "0c476ff8-da5f-4e14-9e63-5db4aa2e10b0",
    "title": "Port De La Grande Motte",
    "lat": 43.556426,
    "lng": 4.081563
  },
  {
    "country": "France",
    "region": "Occitanie",
    "unit": 1,
    "pi": 0,
    "id": "79ae1b20-b970-47fe-b497-8c24f34ff2e6",
    "title": "Port De La Grande Motte",
    "lat": 43.556426,
    "lng": 4.081563
  },
  {
    "country": "France",
    "region": "Occitanie",
    "unit": 4,
    "pi": 0,
    "id": "e4086b19-3e20-4dae-a48f-6bb401c10020",
    "title": "Port De La Grande Motte",
    "lat": 43.556426,
    "lng": 4.081563
  },
  {
    "country": "France",
    "region": "Occitanie",
    "unit": 3,
    "pi": 0,
    "id": "71c36ce7-b044-4fdf-a521-7cb972644898",
    "title": "Port De La Grande Motte",
    "lat": 43.556426,
    "lng": 4.081563
  },
  {
    "country": "Denmark",
    "region": "Rudersdal Municipality",
    "unit": 1,
    "pi": 1,
    "id": "e27458df-d35c-4dbb-af19-0cfdcced2285",
    "title": "Vedbæk Havn",
    "lat": 55.8500371,
    "lng": 12.5707942
  },
  {
    "country": "Australia",
    "region": "Western Australia",
    "unit": 1,
    "pi": 0,
    "id": "9d632ff2-6d84-4240-bc2a-8a77ddd55bb5",
    "title": "Mindarie Marina",
    "lat": -31.691144,
    "lng": 115.702007
  },
  {
    "country": "Australia",
    "region": "New South Wales",
    "unit": 3,
    "pi": 3,
    "id": "3e290781-d047-4d0e-b838-76a7b80d80e2",
    "title": "Jones Bay Wharf",
    "lat": -33.864263,
    "lng": 151.193773
  },
  {
    "country": "Australia",
    "region": "New South Wales",
    "unit": 1,
    "pi": 3,
    "id": "ef41098b-5819-4603-9dbe-3409da5f488c",
    "title": "Jones Bay Wharf",
    "lat": -33.86366,
    "lng": 151.19535
  },
  {
    "country": "Australia",
    "region": "New South Wales",
    "unit": 2,
    "pi": 3,
    "id": "ff6dbce7-a4fa-4ab8-9a42-ca4a8db09e26",
    "title": "Jones Bay Wharf",
    "lat": -33.86337,
    "lng": 151.194475
  },
  {
    "country": "United Kingdom",
    "region": "Scotland",
    "unit": 1,
    "pi": 0,
    "id": "55378195-9449-464b-b1ff-d4a5b211d3c9",
    "title": "Banff Harbour",
    "lat": 57.669742,
    "lng": -2.523019
  },
  {
    "country": "United Kingdom",
    "region": "England",
    "unit": 1,
    "pi": 0,
    "id": "948e066b-1627-4203-a362-0c5c880ee93f",
    "title": "Thames and Kennet Marina",
    "lat": 51.462247,
    "lng": -0.949507
  },
  {
    "country": "Spain",
    "region": "Balearic Islands",
    "unit": 2,
    "pi": 3,
    "id": "6fadd5d1-2e38-4199-816b-77f1e6f35fed",
    "title": "Porto Cristo",
    "lat": 39.53852,
    "lng": 3.331678
  },
  {
    "country": "Spain",
    "region": "Balearic Islands",
    "unit": 1,
    "pi": 3,
    "id": "a796d1d7-d7e8-482e-b188-6231792b6d59",
    "title": "Porto Cristo",
    "lat": 39.540425,
    "lng": 3.33216
  },
  {
    "country": "France",
    "region": "Corsica",
    "unit": 1,
    "pi": 0,
    "id": "68ea71fe-c52a-441e-adbe-d58c595d3104",
    "title": "Port De Plaisance Et De Peche Ajaccio Tino Rossi",
    "lat": 41.918348,
    "lng": 8.742957
  },
  {
    "country": "France",
    "region": "Provence-Alpes-Côte d'Azur",
    "unit": 1,
    "pi": 0,
    "id": "ba6fe853-d5ad-4684-a720-f14971b2f5d4",
    "title": "La Ciotat",
    "lat": 43.176378,
    "lng": 5.613017
  },
  {
    "country": "United Kingdom",
    "region": "England",
    "unit": 1,
    "pi": 0,
    "id": "f80e9551-c325-4301-a7f5-3217f6b0dcd5",
    "title": "Premier Port Solent",
    "lat": 50.843497,
    "lng": -1.102661
  },
  {
    "country": "Canada",
    "region": "Ontario",
    "unit": 1,
    "pi": 0,
    "id": "001c27c4-ab84-4d3c-ae66-48f50438f99c",
    "title": "Outer Harbour Marina Toronto",
    "lat": 43.644382,
    "lng": -79.324284
  },
  {
    "country": "Canada",
    "region": "Ontario",
    "unit": 3,
    "pi": 0,
    "id": "235931a2-7071-4dec-89e2-1bcf04a4bc40",
    "title": "Outer Harbour Marina Toronto",
    "lat": 43.640814,
    "lng": -79.326165
  },
  {
    "country": "Canada",
    "region": "Ontario",
    "unit": 2,
    "pi": 0,
    "id": "dec70cb0-152a-4724-83b1-d24d62baf4e0",
    "title": "Outer Harbour Marina Toronto",
    "lat": 43.64341,
    "lng": -79.324596
  },
  {
    "country": "Greece",
    "region": "North Aegean",
    "unit": 1,
    "pi": 0,
    "id": "c3e3b04b-4385-491f-921f-686043280982",
    "title": "Chios Port Authorities",
    "lat": 38.366003,
    "lng": 26.14244
  },
  {
    "country": "New Zealand",
    "region": "Bay of Plenty",
    "unit": 1,
    "pi": 0,
    "id": "71e1ce3d-494f-41ba-b7c3-8ad6a5d354f3",
    "title": "Tauranga Bridge Marina",
    "lat": -37.671509,
    "lng": 176.178859
  },
  {
    "country": "Switzerland",
    "region": "Canton of St. Gallen",
    "unit": 1,
    "pi": 0,
    "id": "67b47a1d-9171-46f8-b75f-0d82c826989b",
    "title": "Hafen Am Rheinspitz",
    "lat": 47.498217,
    "lng": 9.559173
  },
  {
    "country": "United States of America",
    "region": "California",
    "unit": 1,
    "pi": 0,
    "id": "cf6d0f9f-e23d-4d78-95da-f461d31147fa",
    "title": "Pillar Point",
    "lat": 37.5027678,
    "lng": -122.484969
  },
  {
    "country": "Hong Kong",
    "region": "Hongkong",
    "unit": 1,
    "pi": 0,
    "id": "2883ea60-b6ab-40e0-a23a-0c58d9406381",
    "title": "Hebe Haven Yacht Club",
    "lat": 22.3666639,
    "lng": 114.266666666666
  },
  {
    "country": "Australia",
    "region": "New South Wales",
    "unit": 1,
    "pi": 0,
    "id": "f8cadac3-f2d0-4c50-888d-4e74fbfcc530",
    "title": "D'albora Marinas Cabarita Point",
    "lat": -33.842028,
    "lng": 151.121056
  },
  {
    "country": "Australia",
    "region": "New South Wales",
    "unit": 1,
    "pi": 3,
    "id": "d76ee90b-423c-4c6c-8575-49021e02b724",
    "title": "Manly Yacht Club",
    "lat": -33.802918,
    "lng": 151.285221
  },
  {
    "country": "Japan",
    "region": "Kanagawa",
    "unit": 2,
    "pi": 0,
    "id": "dfd3e252-d09f-4bc8-bd78-0c75f1b401ef",
    "title": "Enoshima Yacht Harbor",
    "lat": 35.3006,
    "lng": 139.483847
  },
  {
    "country": "Japan",
    "region": "Kanagawa",
    "unit": 1,
    "pi": 0,
    "id": "64f0a0c9-cfb7-46bb-95f5-5bfb39043079",
    "title": "Enoshima Yacht Harbor",
    "lat": 35.3005,
    "lng": 139.483847
  },
  {
    "country": "Japan",
    "region": "Kanagawa",
    "unit": 3,
    "pi": 0,
    "id": "0ddae8db-ffab-4062-9b9d-591283cee03e",
    "title": "Enoshima Yacht Harbor",
    "lat": 35.3007,
    "lng": 139.483847
  },
  {
    "country": "Netherlands",
    "region": "South Holland",
    "unit": 1,
    "pi": 0,
    "id": "949dc289-0b48-4703-be9c-f66d1d01e71c",
    "title": "Willeminahaven Schiedam",
    "lat": 51.900925,
    "lng": 4.397468
  },
  {
    "country": "United Kingdom",
    "region": "England",
    "unit": 1,
    "pi": 0,
    "id": "f6375ef3-7887-4be1-8a50-ddd489059f70",
    "title": "Hydrock",
    "lat": 50.895669,
    "lng": -1.389019
  },
  {
    "country": "Netherlands",
    "region": "Flevoland",
    "unit": 1,
    "pi": 0,
    "id": "ea0ab195-617e-4a44-9fc7-83b0d8c09d99",
    "title": "Marina Muizerland",
    "lat": 52.341684,
    "lng": 5.133491
  },
  {
    "country": "Italy",
    "region": "Emilia-Romagna",
    "unit": 1,
    "pi": 0,
    "id": "2fab915b-53f2-40ac-b3ab-0643fc7823a6",
    "title": "Marina Di Cattolica",
    "lat": 43.971075,
    "lng": 12.747788
  },
  {
    "country": "United Kingdom",
    "region": "England",
    "unit": 1,
    "pi": 0,
    "id": "3d29ec83-677c-49b2-9b6f-5143d0c0fb33",
    "title": "Good Hotel London",
    "lat": 51.507638,
    "lng": 0.019485
  },
  {
    "country": "France",
    "region": "Paris",
    "unit": 1,
    "pi": 0,
    "id": "04d90242-da5c-407c-a6cd-2f633b21dff6",
    "title": "Fayolle Marine",
    "lat": 48.847717,
    "lng": 2.366897
  },
  {
    "country": "Romania",
    "region": "Constanța",
    "unit": 1,
    "pi": 0,
    "id": "7c57276b-14d4-4ef2-ab3b-2bd192ec112e",
    "title": "Wartsila Hungary",
    "lat": 44.100099,
    "lng": 28.65822
  },
  {
    "country": "United Kingdom",
    "region": "England",
    "unit": 1,
    "pi": 0,
    "id": "0f4ab10c-407b-40b6-a64b-80b34db924ef",
    "title": "Brough",
    "lat": 53.722875,
    "lng": -0.582018
  },
  {
    "country": "Australia",
    "region": "New South Wales",
    "unit": 1,
    "pi": 4,
    "id": "341c1cd9-2fe3-4855-a21a-ba7c88735435",
    "title": "Rose Bay",
    "lat": -33.871361,
    "lng": 151.262
  },
  {
    "country": "United Kingdom",
    "region": "England",
    "unit": 1,
    "pi": 0,
    "id": "f81abd5f-f270-4d11-9d86-b30fb8697347",
    "title": "Premier Gosport",
    "lat": 50.796492,
    "lng": -1.11745
  },
  {
    "country": "United Kingdom",
    "region": "England",
    "unit": 1,
    "pi": 0,
    "id": "34a53f02-868a-4a70-a20c-5cec4112f696",
    "title": "Ineos Team Uk",
    "lat": 50.792415,
    "lng": -1.106892
  },
  {
    "country": "United States of America",
    "region": "California",
    "unit": 1,
    "pi": 0,
    "id": "01361359-5cdb-46bf-b4dd-7614e053668d",
    "title": "Safe Harbour- Cabrillo Isle Marina",
    "lat": 32.726128,
    "lng": -117.201062
  },
  {
    "country": "Spain",
    "region": "Balearic Islands",
    "unit": 1,
    "pi": 0,
    "id": "b3dc12b4-e4db-4266-bd9a-3fb9e5dfb973",
    "title": "Port Adriano",
    "lat": 39.490472,
    "lng": 2.478028
  },
  {
    "country": "Australia",
    "region": "Western Australia",
    "unit": 1,
    "pi": 0,
    "id": "72eb4fbe-a31b-4514-bc99-4ba92d4fbbc7",
    "title": "Shore Water Marine Pty Ltd",
    "lat": -31.786202,
    "lng": 115.72902
  },
  {
    "country": "Germany",
    "region": "Freie Hansestadt Bremen",
    "unit": 1,
    "pi": 0,
    "id": "be9deb56-f247-4575-8bcb-781cb756e96e",
    "title": "Bremerhaven",
    "lat": 53.56845,
    "lng": 8.561081
  },
  {
    "country": "Bermuda",
    "region": "Hamilton",
    "unit": 1,
    "pi": 0,
    "id": "5fc5cf51-08bb-402f-b120-029eb57cb693",
    "title": "Butterfield Group (Bermuda)",
    "lat": 32.293069,
    "lng": -64.783695
  },
  {
    "country": "Italy",
    "region": "Marche",
    "unit": 1,
    "pi": 0,
    "id": "6f6ae01f-647e-4026-81e9-1792d7fc2a06",
    "title": "Marina Del Cesaro",
    "lat": 43.851815,
    "lng": 13.020065
  },
  {
    "country": "Croatia",
    "region": "Trogir",
    "unit": 1,
    "pi": 0,
    "id": "72d11262-d8fb-4196-990a-305d09843b34",
    "title": "Marina Baotic",
    "lat": 43.5161,
    "lng": 16.232578
  },
  {
    "country": "Italy",
    "region": "Province of Messina",
    "unit": 1,
    "pi": 0,
    "id": "ef31fbd0-ad11-4635-83c4-f117bf752739",
    "title": "Capo D Orlando Marina",
    "lat": 38.156063,
    "lng": 14.766129
  },
  {
    "country": "Australia",
    "region": "Queensland",
    "unit": 2,
    "pi": 0,
    "id": "340034ca-4470-4718-ab41-ea16f05e8271",
    "title": "Newport Marina",
    "lat": -27.210566,
    "lng": 153.093835
  },
  {
    "country": "Australia",
    "region": "Queensland",
    "unit": 3,
    "pi": 0,
    "id": "0167391f-64ae-40b8-bf26-21b2021747f7",
    "title": "Newport Marina",
    "lat": -27.2096,
    "lng": 153.094807
  },
  {
    "country": "Australia",
    "region": "Queensland",
    "unit": 1,
    "pi": 0,
    "id": "e9e1c325-4fd6-48f1-ad60-54a25c8cc123",
    "title": "Newport Marina",
    "lat": -27.210506,
    "lng": 153.094559
  },
  {
    "country": "Panama",
    "region": "Mexico",
    "unit": 1,
    "pi": 0,
    "id": "07ba4102-6d38-4ffb-8932-31255bb62d36",
    "title": "Wartsila Panama Services",
    "lat": 8.923488,
    "lng": -79.576785
  },
  {
    "country": "United Kingdom",
    "region": "England",
    "unit": 1,
    "pi": 0,
    "id": "e34d2828-73cb-4049-9afa-1beb630fbf5a",
    "title": "Canary Wharf",
    "lat": 51.504687,
    "lng": -0.011716
  },
  {
    "country": "Australia",
    "region": "New South Wales",
    "unit": 1,
    "pi": 1,
    "id": "0f608e7b-72c8-49dd-bf18-9de59b138810",
    "title": "Royal Sydney Yacht Squadron",
    "lat": -33.847333,
    "lng": 151.219778
  },
  {
    "country": "Portugal",
    "region": "Porto District",
    "unit": 1,
    "pi": 0,
    "id": "ae2a8100-7839-4325-b298-74ce78ed4b0a",
    "title": "_x000D_\nDouro Marina",
    "lat": 41.142212,
    "lng": -8.649847
  },
  {
    "country": "Ireland",
    "region": "Dublin",
    "unit": 1,
    "pi": 0,
    "id": "911ecb75-4e97-4617-b41e-d96898165b21",
    "title": "Dun Laoghaire Harbour",
    "lat": 53.29879,
    "lng": -6.132905
  },
  {
    "country": "Spain",
    "region": "Gipuzcoa",
    "unit": 1,
    "pi": 5,
    "id": "d3755c90-6e6a-4bbf-95e8-73d9f1218423",
    "title": "Pasaia de San Pedro/ Barco Mater Museo",
    "lat": 43.325033,
    "lng": -1.922728
  },
  {
    "country": "Croatia",
    "region": "Dalmatian region",
    "unit": 1,
    "pi": 0,
    "id": "2720f6fe-97a9-40ba-9b9b-e28a68125fd9",
    "title": "Marina Mandalina",
    "lat": 43.719861,
    "lng": 15.900898
  },
  {
    "country": "Australia",
    "region": "New South Wales",
    "unit": 1,
    "pi": 1,
    "id": "b94c0daf-1092-4598-8b8d-96a904241ff1",
    "title": "Sydney Wharf Marina",
    "lat": -33.867536,
    "lng": 151.196955
  },
  {
    "country": "Spain",
    "region": "Balearic Islands",
    "unit": 1,
    "pi": 1,
    "id": "40b14933-8047-4035-80ac-0b43dbd5e91a",
    "title": "Club Nautico Santa Ponça",
    "lat": 39.511694,
    "lng": 2.466639
  },
  {
    "country": "Australia",
    "region": "New South Wales",
    "unit": 1,
    "pi": 5,
    "id": "06a20df0-de45-4114-bcb8-8582e0ec75fe",
    "title": "Gladesville Bridge Marina",
    "lat": -33.843656,
    "lng": 151.146333
  },
  {
    "country": "Australia",
    "region": "New South Wales",
    "unit": 2,
    "pi": 5,
    "id": "15430961-9841-4eeb-a529-60fe6483100e",
    "title": "Gladesville Bridge Marina",
    "lat": -33.843125,
    "lng": 151.145837
  },
  {
    "country": "Japan",
    "region": "Kyushu",
    "unit": 1,
    "pi": 0,
    "id": "88b43316-1a85-431e-be6d-4be5f2193871",
    "title": "Marushima Fishing Port",
    "lat": 32.213785,
    "lng": 130.386911
  },
  {
    "country": "Australia",
    "region": "Western Australia",
    "unit": 1,
    "pi": 0,
    "id": "db8584a3-6338-4aff-a93d-8fc2d92314f1",
    "title": "Mandurah Marina",
    "lat": -32.523301,
    "lng": 115.715725
  },
  {
    "country": "Montenegro",
    "region": "Montenegro",
    "unit": 1,
    "pi": 0,
    "id": "1d4869b4-217b-4ad8-bac5-cfb6db2f8bfc",
    "title": "Porto Montenegro",
    "lat": 42.433921,
    "lng": 18.691233
  },
  {
    "country": "Singapore",
    "region": "Southwest",
    "unit": 1,
    "pi": 0,
    "id": "e4c7ee9e-153d-45f4-b849-c401e07e0800",
    "title": "Marina at Keppel Bay",
    "lat": 1.264313,
    "lng": 103.812948
  },
  {
    "country": "Singapore",
    "region": "Southwest",
    "unit": 2,
    "pi": 0,
    "id": "cf767d57-c1d0-459d-a5c2-762419fce0b3",
    "title": "Marina at Keppel Bay",
    "lat": 1.264269,
    "lng": 103.812694
  },
  {
    "country": "Spain",
    "region": "Catalonia",
    "unit": 1,
    "pi": 0,
    "id": "0f4d2785-4b1b-4ca7-a541-d8c6eecc1c12",
    "title": "MB92 Barcelona",
    "lat": 41.372304,
    "lng": 2.187379
  },
  {
    "country": "Spain",
    "region": "Catalonia",
    "unit": 2,
    "pi": 0,
    "id": "2108892c-2507-42b5-aea4-eade87743374",
    "title": "MB92 Barcelona",
    "lat": 41.373137,
    "lng": 2.187508
  },
  {
    "country": "Australia",
    "region": "New South Wales",
    "unit": 1,
    "pi": 5,
    "id": "2e2f1c16-99cb-45b1-819f-976a95c15912",
    "title": "Sealife Sydney Aquarium",
    "lat": -33.869611,
    "lng": 151.202
  },
  {
    "country": "Hong Kong",
    "region": "So Kwun Wat",
    "unit": 1,
    "pi": 0,
    "id": "b24c12c2-6bb5-407e-a269-cb60fe2c2f8f",
    "title": "Aberdeen Marina Club",
    "lat": 22.244616,
    "lng": 114.164472
  },
  {
    "country": "Australia",
    "region": "New South Wales",
    "unit": 1,
    "pi": 0,
    "id": "b5dc4501-10ac-498f-8656-d0a7e9d431ae",
    "title": "Brunswick Heads Boat Harbour",
    "lat": -28.535266,
    "lng": 153.544887
  },
  {
    "country": "Greece",
    "region": "Cyclades",
    "unit": 1,
    "pi": 0,
    "id": "1fdb1c6e-2d6d-40cd-a444-6f52ef866ad3",
    "title": "Syros Port Authorities",
    "lat": 37.441277,
    "lng": 24.941344
  },
  {
    "country": "United Kingdom",
    "region": "England",
    "unit": 1,
    "pi": 0,
    "id": "ab014003-7b40-4009-ab9f-4e48642cb007",
    "title": "South Dock Marina",
    "lat": 51.49315,
    "lng": -0.035864
  },
  {
    "country": "Sweden",
    "region": "Halland County",
    "unit": 1,
    "pi": 0,
    "id": "cb080746-593f-44dd-9937-6139d9e629c8",
    "title": "My Cofiltration AB",
    "lat": 56.515336,
    "lng": 12.94121
  },
  {
    "country": "Greece",
    "region": "Attica",
    "unit": 1,
    "pi": 0,
    "id": "86c358e2-665d-4e46-b617-4b8db0b73e48",
    "title": "Flisvos Marina",
    "lat": 37.93041,
    "lng": 23.68516
  },
  {
    "country": "Canada",
    "region": "Ontario",
    "unit": 1,
    "pi": 0,
    "id": "333934e4-906b-43e4-a135-429391ba7f98",
    "title": "Crate Marine\nBelleville",
    "lat": 44.158856,
    "lng": -77.386051
  },
  {
    "country": "United Kingdom",
    "region": "St. Helier",
    "unit": 1,
    "pi": 0,
    "id": "1cbf12b9-5e20-4966-807a-f49a797773e4",
    "title": "Jersey Marinas",
    "lat": 49.181163,
    "lng": -2.110593
  },
  {
    "country": "Australia",
    "region": "Western Australia",
    "unit": 1,
    "pi": 0,
    "id": "3c7d7aee-0d10-43e5-93dc-851d6836ddd8",
    "title": "Subiaco",
    "lat": -31.943972,
    "lng": 115.816417
  },
  {
    "country": "Italy",
    "region": "Campania",
    "unit": 1,
    "pi": 0,
    "id": "16d3959c-0333-42a5-aa06-9b07c7a2732d",
    "title": "Club Nautico Della Vela",
    "lat": 40.828944,
    "lng": 14.247222
  },
  {
    "country": "Spain",
    "region": "Balearic Islands",
    "unit": 3,
    "pi": 0,
    "id": "0e68e87a-845d-4f75-97e7-4f6a6d8e2078",
    "title": "Port Ciudadela, menorca",
    "lat": 40.001139,
    "lng": 3.834028
  },
  {
    "country": "Australia",
    "region": "Queensland",
    "unit": 1,
    "pi": 0,
    "id": "5ef4ee2c-9e97-49c0-8452-8c7923a87944",
    "title": "Great Sandy Straits Marina",
    "lat": -25.293,
    "lng": 152.910306
  },
  {
    "country": "Spain",
    "region": "Balearic Islands",
    "unit": 4,
    "pi": 0,
    "id": "6d209111-798f-416b-baf4-8ef0049e1a9e",
    "title": "Naviera Balear s.l.",
    "lat": 39.567782,
    "lng": 2.632057
  },
  {
    "country": "Spain",
    "region": "Balearic Islands",
    "unit": 3,
    "pi": 0,
    "id": "31a351f1-3631-4315-91d0-4cd65c004bda",
    "title": "Naviera Balear s.l.",
    "lat": 39.567808,
    "lng": 2.6321154
  },
  {
    "country": "Spain",
    "region": "Balearic Islands",
    "unit": 2,
    "pi": 0,
    "id": "f572858a-16fd-4304-bb0f-42217ad90e75",
    "title": "Naviera Balear s.l.",
    "lat": 39.5678582,
    "lng": 2.6320953
  },
  {
    "country": "Spain",
    "region": "Balearic Islands",
    "unit": 5,
    "pi": 0,
    "id": "dffced13-0c90-4384-b072-370d4a284334",
    "title": "Naviera Balear s.l.",
    "lat": 39.5673805,
    "lng": 2.632442
  },
  {
    "country": "Spain",
    "region": "Balearic Islands",
    "unit": 6,
    "pi": 0,
    "id": "173d69b4-552f-41c2-9df1-b4fb6bb446a0",
    "title": "Naviera Balear s.l.",
    "lat": 39.5673513,
    "lng": 2.6324933
  },
  {
    "country": "Spain",
    "region": "Balearic Islands",
    "unit": 1,
    "pi": 0,
    "id": "96c0ee2c-a38c-4554-b1db-f1198bffa502",
    "title": "Naviera Balear s.l.",
    "lat": 39.5677631,
    "lng": 2.631933
  },
  {
    "country": "Australia",
    "region": "Queensland",
    "unit": 1,
    "pi": 0,
    "id": "69b156b8-df93-4e4d-836d-69281cc38df1",
    "title": "Gold Coast City Marina",
    "lat": -27.862622,
    "lng": 153.339017
  },
  {
    "country": "Switzerland",
    "region": "Geneva",
    "unit": 1,
    "pi": 0,
    "id": "9d2068ae-40c4-4ead-a0da-5dd2e786d2b4",
    "title": "Nautic Company",
    "lat": 46.16081,
    "lng": 6.107209
  },
  {
    "country": "Spain",
    "region": "Balearic Islands",
    "unit": 1,
    "pi": 2,
    "id": "d8f59a8e-597e-40c1-a79d-1ee3a1fd5dd4",
    "title": "Colonia Sant Jordi",
    "lat": 39.315361,
    "lng": 2.998472
  },
  {
    "country": "Australia",
    "region": "New South Wales",
    "unit": 1,
    "pi": 0,
    "id": "13e8412f-d09a-48f2-b2ea-7038b00de3dc",
    "title": "Royal Prince Alfred",
    "lat": -33.657032,
    "lng": 151.304826
  },
  {
    "country": "Australia",
    "region": "New South Wales",
    "unit": 1,
    "pi": 1,
    "id": "9df252bd-d8fb-4805-920d-18733f42aef5",
    "title": "Coffs Harbour Marina",
    "lat": -30.303094,
    "lng": 153.146411
  },
  {
    "country": "Australia",
    "region": "New South Wales",
    "unit": 1,
    "pi": 1,
    "id": "fe75ad12-b2c2-414f-bd5f-f4ec381827ea",
    "title": "Australian National Maritime Museum",
    "lat": -33.869222,
    "lng": 151.199167
  },
  {
    "country": "Dubai",
    "region": "Dubai",
    "unit": 1,
    "pi": 0,
    "id": "313f37b2-225b-4fc6-ba44-54e08c46101f",
    "title": "Dubai Airport",
    "lat": 25.285836,
    "lng": 55.309152
  },
  {
    "country": "Australia",
    "region": "New South Wales",
    "unit": 1,
    "pi": 0,
    "id": "e6bd781c-2537-4d6f-a670-5d9765c8eb20",
    "title": "Homeport Marina",
    "lat": -33.645805,
    "lng": 151.280537
  },
  {
    "country": "France",
    "region": "Corsica",
    "unit": 1,
    "pi": 0,
    "id": "9b1f6467-f4d3-4970-bb35-d5101f8608fc",
    "title": "Port Charles Ornano",
    "lat": 41.932973,
    "lng": 8.744689
  },
  {
    "country": "Ireland",
    "region": "Fingal",
    "unit": 2,
    "pi": 0,
    "id": "35933ab6-609e-4803-85d1-e145abab3d48",
    "title": "Howth Yacht Club",
    "lat": 53.392414,
    "lng": -6.068734
  },
  {
    "country": "Ireland",
    "region": "Fingal",
    "unit": 1,
    "pi": 0,
    "id": "528ea70f-2828-423f-acf8-0bdaf66ad26c",
    "title": "Howth Yacht Club",
    "lat": 53.389279,
    "lng": -6.064791
  },
  {
    "country": "Estonia",
    "region": "Harju County",
    "unit": 1,
    "pi": 0,
    "id": "b01e3bbb-2d0f-4fb9-a24c-d39562866491",
    "title": "Tallinn",
    "lat": 59.442441,
    "lng": 24.757724
  },
  {
    "country": "Iran",
    "region": "Mazandaran Province",
    "unit": 1,
    "pi": 0,
    "id": "8f9c6370-91e7-456d-8f83-71a6ca2eb2c3",
    "title": "Tehran Imam Khomeini Airport",
    "lat": 36.806131,
    "lng": 51.18303
  },
  {
    "country": "Australia",
    "region": "Victoria",
    "unit": 1,
    "pi": 0,
    "id": "482dcc3b-a6a5-46b9-b5c2-3f27e4f3a727",
    "title": "Wyndham Harbour",
    "lat": -37.966263,
    "lng": 144.707021
  },
  {
    "country": "United Kingdom",
    "region": "Northern Ireland",
    "unit": 1,
    "pi": 0,
    "id": "4b808e4e-5937-4ea7-9f9d-620fde27c00d",
    "title": "Belfast Harbour Marina",
    "lat": 54.605512,
    "lng": -5.919695
  },
  {
    "country": "United Arab Emirates",
    "region": "Dubai",
    "unit": 1,
    "pi": 0,
    "id": "5837d6cc-645e-4e60-8a93-b07c6a110a76",
    "title": "Stratconn Commercial Broker",
    "lat": 25.100925,
    "lng": 55.150753
  },
  {
    "country": "Canada",
    "region": "Quebec",
    "unit": 1,
    "pi": 0,
    "id": "81460579-55f4-4644-b317-fc0fb27ad364",
    "title": "Marina Port de Québec",
    "lat": 46.819893,
    "lng": -71.207103
  },
  {
    "country": "United Kingdom",
    "region": "England",
    "unit": 1,
    "pi": 0,
    "id": "9a01831c-52db-443d-89a1-9b7d7aa7ecd5",
    "title": "Ipswich Suffolk",
    "lat": 52.048091,
    "lng": 1.160046
  },
  {
    "country": "France",
    "region": "Normandy",
    "unit": 1,
    "pi": 0,
    "id": "ebdae549-fff6-4116-893d-1386f10f01da",
    "title": "Port De Plaisance De Fecamp",
    "lat": 49.763255,
    "lng": 0.362481
  },
  {
    "country": "Spain",
    "region": "Balearic Islands",
    "unit": 1,
    "pi": 0,
    "id": "83134483-f8f6-4656-8421-677dae339a17",
    "title": "Port Ciudadela, Menorca",
    "lat": 40.00075,
    "lng": 3.832167
  },
  {
    "country": "Spain",
    "region": "Balearic Islands",
    "unit": 2,
    "pi": 0,
    "id": "e46e1ff0-3f99-4d54-a91c-c25e6f3cb55b",
    "title": "Port Ciudadela, Menorca",
    "lat": 40.001111,
    "lng": 3.833194
  },
  {
    "country": "Switzerland",
    "region": "Canton of Zürich",
    "unit": 1,
    "pi": 0,
    "id": "deee59d8-6ada-425d-8268-36b2864fadf6",
    "title": "Lake Zurich (Stadt Zurich)",
    "lat": 47.348833,
    "lng": 8.56175
  },
  {
    "country": "Canada",
    "region": "Ontario",
    "unit": 1,
    "pi": 0,
    "id": "f7372853-3f2e-4464-ac7b-a8f5d7e84e33",
    "title": "Nepean Sailing Club",
    "lat": 45.3514,
    "lng": -75.8261
  },
  {
    "country": "United Kingdom",
    "region": "England",
    "unit": 1,
    "pi": 0,
    "id": "aac20e3d-58c2-493c-be9f-92cece80d700",
    "title": "Leicester Outdoor Pursuit Centre, River Soar",
    "lat": 52.663402,
    "lng": -1.126327
  },
  {
    "country": "Republic of Maldives",
    "region": "Fari Islands",
    "unit": 1,
    "pi": 2,
    "id": "061dda30-7461-41f1-b2a9-7b86cfdecc25",
    "title": "Fari Islands",
    "lat": 4.59330632,
    "lng": 73.58375666
  },
  {
    "country": "France",
    "region": "Metropolitan France",
    "unit": 1,
    "pi": 0,
    "id": "fe9fd81a-3b03-4147-8b5b-2fb87b780d3b",
    "title": "Poralu Marine",
    "lat": 46.166838,
    "lng": 5.564099
  },
  {
    "country": "United States of America",
    "region": "California",
    "unit": 1,
    "pi": 0,
    "id": "324ccb90-ec36-4ca2-8f32-9ec42a683664",
    "title": "Safe Harbor Marinas",
    "lat": 32.72601,
    "lng": -117.200855
  },
  {
    "country": "France",
    "region": "Provence-Alpes-Côte d'Azur",
    "unit": 1,
    "pi": 0,
    "id": "3ca8faa0-a5ae-4cc0-811d-353c39d68546",
    "title": "Golfe Juan",
    "lat": 43.565358,
    "lng": 7.077573
  },
  {
    "country": "Spain",
    "region": "Balearic Islands",
    "unit": 1,
    "pi": 0,
    "id": "2eab1d2b-32ad-4147-b753-b03b68967552",
    "title": "Port Ibiza",
    "lat": 38.910596,
    "lng": 1.435634
  },
  {
    "country": "Australia",
    "region": "New South Wales",
    "unit": 1,
    "pi": 0,
    "id": "02ac335b-e79a-4fa2-99d4-14f2ca876373",
    "title": "Royal Motor Yacht Club",
    "lat": -33.65135,
    "lng": 151.302703
  },
  {
    "country": "Canada",
    "region": "Ontario",
    "unit": 1,
    "pi": 0,
    "id": "852ba632-2d3c-4372-9eb8-636fe3640c1a",
    "title": "Credit Village Marina",
    "lat": 43.550823,
    "lng": -79.584392
  },
  {
    "country": "France",
    "region": "Hauts-de-France",
    "unit": 1,
    "pi": 0,
    "id": "7b3cfc89-9397-41b1-9e71-ced26fa45a4d",
    "title": "Logistique Dunkerque",
    "lat": 51.016513,
    "lng": 2.178079
  },
  {
    "country": "United States of America",
    "region": "Hawaii",
    "unit": 1,
    "pi": 1,
    "id": "972b4a5f-2465-4435-929c-9e75b1fc1957",
    "title": "Hawaii Yacht Club",
    "lat": 21.2862885,
    "lng": -157.8428185
  },
  {
    "country": "United States of America",
    "region": "Hawaii",
    "unit": 2,
    "pi": 1,
    "id": "d5685b61-c78f-4528-8afa-871668e3f628",
    "title": "Hawaii Yacht Club",
    "lat": 21.2863666,
    "lng": -157.8428866
  },
  {
    "country": "New Zealand",
    "region": "Auckland Region",
    "unit": 1,
    "pi": 0,
    "id": "48e48b30-d34a-4a45-b5a0-eeab35ba4115",
    "title": "Half Moon Bay Marina",
    "lat": -36.877986,
    "lng": 174.901044
  },
  {
    "country": "Japan",
    "region": "Kyushu",
    "unit": 2,
    "pi": 0,
    "id": "ba9ec276-fb21-456e-90a1-f2ccb2bdaf7c",
    "title": "Edu Lake",
    "lat": 32.772599,
    "lng": 130.751181
  },
  {
    "country": "Japan",
    "region": "Kyushu",
    "unit": 1,
    "pi": 0,
    "id": "dcbc83e9-1af9-4e76-8a04-4f53bb5c7bdd",
    "title": "Edu Lake",
    "lat": 32.780683,
    "lng": 130.738508
  },
  {
    "country": "New Zealand",
    "region": "Auckland",
    "unit": 1,
    "pi": 0,
    "id": "0ea6de93-212b-48cf-a2c2-171782740fb2",
    "title": "Viaduct Marina",
    "lat": -36.842366,
    "lng": 174.760538
  },
  {
    "country": "France",
    "region": "Occitanie",
    "unit": 1,
    "pi": 0,
    "id": "d84dd295-4354-43af-8a78-8444776500e2",
    "title": "Port Leucate",
    "lat": 42.864174,
    "lng": 3.040813
  },
  {
    "country": "Ireland",
    "region": "Tullamore",
    "unit": 1,
    "pi": 0,
    "id": "dfcb6c3a-6fe7-4cd4-88f6-912b670e426b",
    "title": "Banagher",
    "lat": 53.192679,
    "lng": -7.992946
  },
  {
    "country": "United Kingdom",
    "region": "England",
    "unit": 1,
    "pi": 0,
    "id": "7759f36d-8965-47d3-bb02-f005106199f4",
    "title": "Whitehaven Marina Ltd",
    "lat": 54.55016,
    "lng": -3.589415
  },
  {
    "country": "Australia",
    "region": "New South Wales",
    "unit": 1,
    "pi": 3,
    "id": "c32c6a7a-bb5c-45fd-b1d8-adfa1d31c744",
    "title": "D'albora Marinas Rushcutters",
    "lat": -33.873211,
    "lng": 151.234175
  },
  {
    "country": "Australia",
    "region": "New South Wales",
    "unit": 2,
    "pi": 3,
    "id": "684d6c18-96f2-4725-b72e-55c3722b2e0c",
    "title": "D'albora Marinas Rushcutters",
    "lat": -33.873093,
    "lng": 151.233789
  },
  {
    "country": "United Kingdom",
    "region": "England",
    "unit": 1,
    "pi": 0,
    "id": "a378e4f3-4f0a-4111-942d-b695a63e66d1",
    "title": "Scarborough Harbour",
    "lat": 54.283586,
    "lng": -0.387839
  },
  {
    "country": "United Kingdom",
    "region": "England",
    "unit": 1,
    "pi": 0,
    "id": "8b744409-4cd4-4410-b247-17d0e2e8cff9",
    "title": "UKSA Superyacht",
    "lat": 50.752812,
    "lng": -1.293588
  },
  {
    "country": "Sweden",
    "region": "Stockholm",
    "unit": 1,
    "pi": 0,
    "id": "bfc9359d-6d65-4485-93f1-b843f607e9a5",
    "title": "Klara Mälarstrand, Ferry Wharf",
    "lat": 59.327837,
    "lng": 18.057659
  },
  {
    "country": "Spain",
    "region": "Palma",
    "unit": 1,
    "pi": 0,
    "id": "b4fa53c0-70b3-461c-9092-6389ba3f3edd",
    "title": "Real Club Nautico, Palma",
    "lat": 39.5677127,
    "lng": 2.6361836
  },
  {
    "country": "Australia",
    "region": "New South Wales",
    "unit": 1,
    "pi": 1,
    "id": "f0576468-52a1-4477-a7d1-11976e24c8f3",
    "title": "Ballina Marina",
    "lat": -28.867716,
    "lng": 153.544572
  },
  {
    "country": "Italy",
    "region": "Veneto",
    "unit": 1,
    "pi": 0,
    "id": "cf5833ba-7d0c-42df-afd9-366cc3463f02",
    "title": "VDV SRL",
    "lat": 45.433522,
    "lng": 12.375181
  },
  {
    "country": "Australia",
    "region": "Western Australia",
    "unit": 1,
    "pi": 1,
    "id": "5868777c-cc73-4f9c-8bb5-8543e25bc9a1",
    "title": "Port Coogee Marina",
    "lat": -32.100182,
    "lng": 115.759385
  },
  {
    "country": "Australia",
    "region": "New South Wales",
    "unit": 1,
    "pi": 1,
    "id": "2b4e9332-eccc-4664-8c12-ce1f822a5d10",
    "title": "Port Authority of New South Wales",
    "lat": -33.856008,
    "lng": 151.202845
  },
  {
    "country": "Germany",
    "region": "Lower Saxony",
    "unit": 1,
    "pi": 0,
    "id": "e975f4c9-3394-47b7-a4e9-0b5230d13f3f",
    "title": "Wilhelmshaven Harbour",
    "lat": 53.519383,
    "lng": 8.151294
  },
  {
    "country": "United Kingdom",
    "region": "England",
    "unit": 1,
    "pi": 0,
    "id": "8dbed7c2-0277-4b86-8d12-16ede128009b",
    "title": "ABP Port of Ipswich",
    "lat": 52.052625,
    "lng": 1.160474
  },
  {
    "country": "Ireland",
    "region": "County Kerry",
    "unit": 1,
    "pi": 0,
    "id": "91f1a582-36ac-42df-9ed6-7261a546bb5b",
    "title": "Dingle Marina",
    "lat": 52.138314,
    "lng": -10.277768
  },
  {
    "country": "Indonesia",
    "region": "Jakarta",
    "unit": 2,
    "pi": 8,
    "id": "48a77962-0f31-4e36-a4c9-3d5b91850a6e",
    "title": "Batavia Marina Sunda Kelapa",
    "lat": -6.119862,
    "lng": 106.812922
  },
  {
    "country": "Indonesia",
    "region": "Jakarta",
    "unit": 1,
    "pi": 8,
    "id": "bd2e68bf-7fc0-40a1-b721-d581a815cd5f",
    "title": "Batavia Marina Sunda Kelapa",
    "lat": -6.119909,
    "lng": 106.812653
  },
  {
    "country": "Finland",
    "region": "Helsinki",
    "unit": 1,
    "pi": 0,
    "id": "4d48187e-43f8-4774-84c0-3be7b2dda32e",
    "title": "Wartsila",
    "lat": 60.16668,
    "lng": 24.90143
  },
  {
    "country": "Greece",
    "region": "Shirak Province",
    "unit": 1,
    "pi": 0,
    "id": "6371093f-0d3f-4656-a955-2fb62068efb4",
    "title": "Paros Port Authorities",
    "lat": 37.087,
    "lng": 25.149611
  },
  {
    "country": "Germany",
    "region": "Lower Saxony",
    "unit": 1,
    "pi": 0,
    "id": "072f9169-8b42-494c-a479-2cad959b038b",
    "title": "Emden Port",
    "lat": 53.351342,
    "lng": 7.217798
  },
  {
    "country": "United Kingdom",
    "region": "Scotland",
    "unit": 1,
    "pi": 0,
    "id": "49f20202-d8e1-4ab0-9cde-f7bb30b9b7bc",
    "title": "Fraserburgh",
    "lat": 57.691947,
    "lng": -2.002633
  },
  {
    "country": "Australia",
    "region": "New South Wales",
    "unit": 1,
    "pi": 1,
    "id": "739427e3-356d-4d82-afa9-de0112e11266",
    "title": "Tweed Heads Marina",
    "lat": -28.178962,
    "lng": 153.542232
  },
  {
    "country": "United States of America",
    "region": "Maryland",
    "unit": 1,
    "pi": 0,
    "id": "968b75cd-a9f2-4d08-b3e9-c21dae6ad523",
    "title": "Kentmorr Marina",
    "lat": 38.914966,
    "lng": -76.363034
  },
  {
    "country": "Greece",
    "region": "Attica",
    "unit": 1,
    "pi": 0,
    "id": "86c660d1-1d29-4814-93cd-2befaff276af",
    "title": "Moschato",
    "lat": 37.940974,
    "lng": 23.673785
  },
  {
    "country": "Ireland",
    "region": "Dublin",
    "unit": 1,
    "pi": 0,
    "id": "d7e4078e-71f7-4126-8c35-b80c94fcc428",
    "title": "Royal Irish Yacht Club",
    "lat": 53.296556,
    "lng": -6.136878
  },
  {
    "country": "Ireland",
    "region": "Dublin",
    "unit": 2,
    "pi": 0,
    "id": "f5317504-a4fc-4ddc-8651-ae095440cc07",
    "title": "Royal Irish Yacht Club",
    "lat": 53.296516,
    "lng": -6.134867
  },
  {
    "country": "United Arab Emirates",
    "region": "Abu Dhabi Emirate",
    "unit": 1,
    "pi": 0,
    "id": "e03890fc-66c9-49a2-b467-d8d146d8c2b5",
    "title": "ADNOC Logistics and Services Mussafah Base, Abu Dhabi",
    "lat": 24.331903,
    "lng": 54.458228
  },
  {
    "country": "Australia",
    "region": "New South Wales",
    "unit": 1,
    "pi": 0,
    "id": "d5f1c98e-0386-4135-a7d8-15f1314b912f",
    "title": "Garden Island",
    "lat": -33.86242,
    "lng": 151.22895
  },
  {
    "country": "Australia",
    "region": "New South Wales",
    "unit": 3,
    "pi": 0,
    "id": "4b88471b-92c4-4312-a60d-4dd9fffe9265",
    "title": "Garden Island",
    "lat": -33.862973,
    "lng": 151.228711
  },
  {
    "country": "Australia",
    "region": "New South Wales",
    "unit": 2,
    "pi": 0,
    "id": "fe96cb8f-57b1-4c1f-8576-7d431c163c52",
    "title": "Garden Island",
    "lat": -33.86234,
    "lng": 151.228772
  },
  {
    "country": "Denmark",
    "region": "Hovedstaden",
    "unit": 1,
    "pi": 0,
    "id": "eb99dda4-3416-434f-bf26-20c871887d0c",
    "title": "Innerhamnen Helsingör",
    "lat": 56.037376,
    "lng": 12.623468
  },
  {
    "country": "Spain",
    "region": "Balearic Islands",
    "unit": 1,
    "pi": 3,
    "id": "1f0110b2-5942-499b-8843-603e13219890",
    "title": "Marina Palma Cuarentena",
    "lat": 39.5615635,
    "lng": 2.6277887
  },
  {
    "country": "Spain",
    "region": "Balearic Islands",
    "unit": 2,
    "pi": 3,
    "id": "3c167603-5396-4a32-98da-a8b55015211d",
    "title": "Marina Palma Cuarentena",
    "lat": 39.56008635,
    "lng": 2.62716433
  },
  {
    "country": "France",
    "region": "Cogolin",
    "unit": 1,
    "pi": 0,
    "id": "69849d4d-4852-4bbe-9d6b-b4eac12d3c23",
    "title": "Marines de Cogolin",
    "lat": 43.265095,
    "lng": 6.587709
  },
  {
    "country": "Netherlands",
    "region": "Flevoland",
    "unit": 1,
    "pi": 0,
    "id": "b9ffb588-08ab-4f83-94bb-8bcb56e956bc",
    "title": "Deko Marina Lelystad",
    "lat": 52.533267,
    "lng": 5.441661
  },
  {
    "country": "Greece",
    "region": "East Macedonia and Thrace",
    "unit": 1,
    "pi": 0,
    "id": "26a2fc48-eb4b-428f-b358-f7d66dbc7b14",
    "title": "Kavala Port Authorities",
    "lat": 40.936014,
    "lng": 24.409617
  },
  {
    "country": "Spain",
    "region": "Balearic Islands",
    "unit": 1,
    "pi": 0,
    "id": "bf8f954c-ff25-44c5-916d-9ed2d0f441ff",
    "title": "Marina Port de Mallorca",
    "lat": 39.563291,
    "lng": 2.628242
  },
  {
    "country": "Spain",
    "region": "Balearic Islands",
    "unit": 1,
    "pi": 0,
    "id": "d13cfca0-757e-4d23-b71b-8b37ed08fa04",
    "title": "Marina Port de Mallorca",
    "lat": 39.56325164,
    "lng": 2.62832383
  },
  {
    "country": "Spain",
    "region": "Balearic Islands",
    "unit": 2,
    "pi": 0,
    "id": "0772c205-6f04-4603-8b5f-8899ad975aee",
    "title": "Marina Port de Mallorca",
    "lat": 39.5628452,
    "lng": 2.63002486
  },
  {
    "country": "France",
    "region": "Provence-Alpes-Côte d'Azur",
    "unit": 1,
    "pi": 0,
    "id": "6e8f5131-32f0-4376-9876-a64b37c9dd4a",
    "title": "Yachting Club Pointe Rouge Marseille",
    "lat": 43.243077,
    "lng": 5.367137
  },
  {
    "country": "Singapore",
    "region": "Southwest",
    "unit": 1,
    "pi": 0,
    "id": "601e9092-5c76-4134-97d6-e2ffd1aebaf8",
    "title": "ONE°15 MARINA SENTOSA COVE,\nSINGAPORE",
    "lat": 1.246799,
    "lng": 103.84021
  },
  {
    "country": "Australia",
    "region": "Victoria",
    "unit": 1,
    "pi": 1,
    "id": "c0af3c3a-7fcd-45d6-82e1-d339de4d2956",
    "title": "Royal Geelong Yacht Club",
    "lat": -38.145078,
    "lng": 144.366363
  },
  {
    "country": "United Kingdom",
    "region": "England",
    "unit": 1,
    "pi": 0,
    "id": "a0475427-ed3b-4f3d-805c-9debd1fb51ac",
    "title": "Suffolk Yacht Harbour",
    "lat": 51.995394,
    "lng": 1.268819
  },
  {
    "country": "United States of America",
    "region": "California",
    "unit": 1,
    "pi": 0,
    "id": "6faf9036-1826-4402-a203-acb2ae3653b7",
    "title": "Safe Harbour- Ballena Isle Marina",
    "lat": 37.767147,
    "lng": -122.287223
  },
  {
    "country": "France",
    "region": "Normandy",
    "unit": 1,
    "pi": 0,
    "id": "8d434ec0-1c86-426b-8800-c3b80d3fa716",
    "title": "SMPD - Plaisance",
    "lat": 49.926654,
    "lng": 1.081291
  },
  {
    "country": "Italy",
    "region": "Piedmont",
    "unit": 1,
    "pi": 0,
    "id": "cfac89ba-5c6b-405e-b6af-d67ed11012fd",
    "title": "Augusta In Cala Madonna Del Carmine",
    "lat": 37.231412,
    "lng": 15.223377
  },
  {
    "country": "Croatia",
    "region": "Dubrovnik",
    "unit": 1,
    "pi": 0,
    "id": "c194516e-bab4-401f-a797-6b2591a83bb7",
    "title": "ACI Marina Dubrovnik",
    "lat": 42.670317,
    "lng": 18.126875
  }
]
